{
  "html_attributions": [],
  "next_page_token": "CqQCHQEAAAi5JLVd3F6GmcBg74rmaU56PXoVvckI3zmFemZLyVorv71HMjJeA0O9-pRYXrNPVDEQyT88DBN4i82HXNaXSx5Dfbl62RpJKEEh6PLj3WH7vXRk4m4rt2CkSOHnX3NHCD8BUBeVHr2uJjF4Old_Eaf1xWcv6RG46Ad8xUQivQKq9jiYyLIcGQEmOrlwzXtAuCXreftMHPszJUkTx7_eP7zPalYxkvTfJzi411K7WipEiozGlWZsc5LZ5B3a03WtRcaqRSGh_Ilvx3p1PWoFRwUNx2wY5HxDBB-EJxs8t0aBiJYG-i4S8NVH2KvxxlhduSXfz4__XExtCKYwzU0gw8KrQSsJWdTA011swgsicunVp8ke8q0E0Bhf43FHAb-5UxIQAmxxOh13s3Yv4BENXmri3RoU_dNliwFxgVC1NfLXRutfwXPrpjM",
  "results": [
    {
      "geometry": {
        "location": {
          "lat": 24.9955025,
          "lng": 121.4872683
        },
        "viewport": {
          "northeast": {
            "lat": 24.9968984302915,
            "lng": 121.4886182802915
          },
          "southwest": {
            "lat": 24.9942004697085,
            "lng": 121.4859203197085
          }
        }
      },
      "icon": "https://maps.gstatic.com/mapfiles/place_api/icons/restaurant-71.png",
      "id": "f3f91ec7a81908348c925e6427f1789fa649787f",
      "name": "大樂可早餐店",
      "opening_hours": {
        "open_now": false,
        "weekday_text": []
      },
      "photos": [
        {
          "height": 3456,
          "html_attributions": [
            "<a href="https://maps.google.com/maps/contrib/103305114192618488127/photos">蕭佑庭</a>"
          ],
          "photo_reference": "CmRaAAAAlNV4qfI4Z7Q1vOL6rGyCgaNsQKA3lK-pQW7wvSm4v1RYLLqfydG-plxxRycNrWEtgzY3YGO1Do7UOgxYyen2lZGV947nhgg1t4-OvhQIy6bInTt_r1bjg5ix7jv9UewfEhCctK6aBaEs_4-HVPoprabzGhQvJ-Cd0gwIO4gTbtyE_4X7c9F6EQ",
          "width": 4608
        }
      ],
      "place_id": "ChIJM1W4wYYCaDQRTdiCYMHQfz4",
      "rating": 3.6,
      "reference": "CmRRAAAANs_QmctgGBK-VQBQTScUOiJLgEhR90zPYHnaOSeAyE-p8j47Lei9qss_ukHcEg9bTjEMR8PzWDSWrWHVJ-89liGHTTud7bv8USgsFPEL5V2GHFXro4MH0wCslVgRxhwcEhCjp8hqBcaDC2OC2tXRv0JhGhSe-D-ZOP9eDFSp1DXa_-e7_YxmSw",
      "scope": "GOOGLE",
      "types": [
        "restaurant",
        "food",
        "point_of_interest",
        "establishment"
      ],
      "vicinity": "號, No. 23, 連城路347巷4弄, 中和區"
    },
    {
      "geometry": {
        "location": {
          "lat": 24.9956903,
          "lng": 121.4869653
        },
        "viewport": {
          "northeast": {
            "lat": 24.9969950302915,
            "lng": 121.4883133302915
          },
          "southwest": {
            "lat": 24.9942970697085,
            "lng": 121.4856153697085
          }
        }
      },
      "icon": "https://maps.gstatic.com/mapfiles/place_api/icons/restaurant-71.png",
      "id": "6ced2a445f192bad477c7daf7d00e3a7c536506e",
      "name": "閣坊猪排美食",
      "opening_hours": {
        "open_now": false,
        "weekday_text": []
      },
      "photos": [
        {
          "height": 4656,
          "html_attributions": [
            "<a href="https://maps.google.com/maps/contrib/117490724608762589963/photos">Ligi So</a>"
          ],
          "photo_reference": "CmRaAAAAGFb4nqTex8y9mGBUf7s97d3PXlMNbCmaX5I9ockk8NdEP-ogosYWGBvMbpxMay7gPL1wJ18-8-G26EPF7X1Aw2iCKIzN8RlWhhBQZFfQDlTGbrMR2LKyhHBS_bPMFDVnEhDWxP5v7LEKS_m7bi7_SDaGGhTwQCTRwLhN5E8tOxjaHrY3q0iC9g",
          "width": 3492
        }
      ],
      "place_id": "ChIJM-Vtv4YCaDQR1zyHUOa_Nco",
      "rating": 4.2,
      "reference": "CmRSAAAAmivpCFH4m2kus6TpIMXU1ciZY_WqqFn1QmnOUy7nMIecFJc9GcN0aKdz4hJMjX1q84M45pj0NI0eaBgcuUgpOSlBbSyzSCk0-b9SikTxXd4Seep8wE-5tmRbkWoq3X1hEhDR4dXkQ_R02eurWLyu19_vGhQcCqJAzkuVjXRvZcyWrCJIfHFT8Q",
      "scope": "GOOGLE",
      "types": [
        "restaurant",
        "food",
        "point_of_interest",
        "establishment"
      ],
      "vicinity": "No. 32, Alley 4, Lane 347, Liancheng Road, Zhonghe District"
    },
    {
      "geometry": {
        "location": {
          "lat": 24.9955607,
          "lng": 121.487531
        },
        "viewport": {
          "northeast": {
            "lat": 24.9969096802915,
            "lng": 121.4888799802915
          },
          "southwest": {
            "lat": 24.9942117197085,
            "lng": 121.4861820197085
          }
        }
      },
      "icon": "https://maps.gstatic.com/mapfiles/place_api/icons/restaurant-71.png",
      "id": "e8e1139e41761fbf7fd52b720013ff07177c38f1",
      "name": "大榮華港式燒臘",
      "photos": [
        {
          "height": 960,
          "html_attributions": [
            "<a href="https://maps.google.com/maps/contrib/101505521115000091963/photos">嘎嘎拉拉</a>"
          ],
          "photo_reference": "CmRaAAAAOZIqq9w6aCwJRt9XNzXCR4n70t29pdwWbJZyz_UHMPMrVeBohiU0AiwTfPOEJgh5Y_YqFewbzE_HnpAvDiQktoLYNhFw2_02jToM_rFWBNfrAPHeWUKZLcdLZ-yPdXLeEhCYnmu7jLsWh9Uaz5MVOXxUGhQ9eMfXzAusmNVtdz_nxRWT7u5kNw",
          "width": 1706
        }
      ],
      "place_id": "ChIJYReaw4YCaDQRXdrBNCFM3o0",
      "rating": 3.2,
      "reference": "CmRSAAAAFjQJ876BAbMy0bFT7MFLBliJeu1jLFvxKFi_6_-7Y79DRPfA6ElAEdrRFk4LM9xxMyhVwldLM4GAjCWyEPvvwlDmk3oWKb35_oSrkEnz-eRU9lWc3G2gkBfml38s2w9-EhAXvQWdSpkPcde09S5OXuViGhTr96kQdkgHtScss0wFLeA0szT7jQ",
      "scope": "GOOGLE",
      "types": [
        "restaurant",
        "food",
        "point_of_interest",
        "establishment"
      ],
      "vicinity": "235新北市中和區連城路347巷4弄15號 235新北市中和區連城路347巷4弄15號"
    },
    {
      "geometry": {
        "location": {
          "lat": 24.995676,
          "lng": 121.487626
        },
        "viewport": {
          "northeast": {
            "lat": 24.9969820802915,
            "lng": 121.4889740802915
          },
          "southwest": {
            "lat": 24.9942841197085,
            "lng": 121.4862761197085
          }
        }
      },
      "icon": "https://maps.gstatic.com/mapfiles/place_api/icons/restaurant-71.png",
      "id": "3308f33a48bc822e06c40d12b9d39f19e9b486b5",
      "name": "丸味食足",
      "opening_hours": {
        "open_now": true,
        "weekday_text": []
      },
      "photos": [
        {
          "height": 2470,
          "html_attributions": [
            "<a href="https://maps.google.com/maps/contrib/102416706673473607544/photos">洪筱婷</a>"
          ],
          "photo_reference": "CmRaAAAAhLjZOjQUTdzBzfSBdFSaeJ-FRP9OWXOBcgavxnDJJWgsl19zfsw5o8DulxbvkEZMzwK4fkBw7eBL5A9gL4MTWK-FhWHhkoojrIzml3UXwdwSpCd7oqE9AuQ3Ynxqv2vWEhD6Ii2yYwCXq844D_rBqkFOGhRXqQ3AL_87USHuHX9ivHse4Ohe1Q",
          "width": 1656
        }
      ],
      "place_id": "ChIJm32cxIYCaDQRqfuEQQcaqOw",
      "rating": 3.8,
      "reference": "CmRSAAAAY9DQHmLtb6NjD0PBjS7RHMUoBNny_Da39QTiu1EvHUw6_c51N90d3vplwacggAgWn5i3sX3W7jVWYTYKXyYChanXfyjlywBefhcbdfH_VKKwgrxJGubfaQOMfsOBya8yEhCJpz3QHkO9HnHLaJs2ryxmGhR4rHFieUb2nsUkLxshOSXSPJfwzQ",
      "scope": "GOOGLE",
      "types": [
        "restaurant",
        "food",
        "point_of_interest",
        "establishment"
      ],
      "vicinity": "No. 16, Alley 4, Lane 347, Liancheng Road, Zhonghe District"
    },
    {
      "geometry": {
        "location": {
          "lat": 24.9955551,
          "lng": 121.4876142
        },
        "viewport": {
          "northeast": {
            "lat": 24.9969077802915,
            "lng": 121.4889632802915
          },
          "southwest": {
            "lat": 24.9942098197085,
            "lng": 121.4862653197085
          }
        }
      },
      "icon": "https://maps.gstatic.com/mapfiles/place_api/icons/restaurant-71.png",
      "id": "dd395f674cccc50a19e0b2d4c0375a41b3fe0db2",
      "name": "盖饭店",
      "photos": [
        {
          "height": 1836,
          "html_attributions": [
            "<a href="https://maps.google.com/maps/contrib/102738277120685610912/photos">Peter Wei</a>"
          ],
          "photo_reference": "CmRaAAAAAMCQLwOB8pYcW636nowHBnYqTAiqYdADYKu5TAvJKtGrGcaqxAVZXD1MVRSdlysJnIDjAcWejw95Ui618FJ19H-ocsJsfYmFC12gB26lo8zmjBqmSf_XtQ3swCwzjQBSEhCGbLoAFz5qC0eh8QpkI2kkGhS6TObDWiPdW8lyW2u9BQsur0-3cA",
          "width": 3264
        }
      ],
      "place_id": "ChIJT1N4w4YCaDQR1Q93ZyoXM2E",
      "rating": 4.1,
      "reference": "CmRRAAAApNQxMPZcG-d57TMPJq0B4d1D1wd_BZQm2bUgAodxbrLv17SsKzNYfKJbI2RjpYFGvipZhZj_U5evEw6AV9pa4PZACzChAuSl816xojXU7zfrgANN9sseYxCsc6xrfejAEhAqiCMWvxX3GPrlS31UgWMsGhRdu9hdOxNa39Fj7lougdsSCs_NVw",
      "scope": "GOOGLE",
      "types": [
        "restaurant",
        "food",
        "point_of_interest",
        "establishment"
      ],
      "vicinity": "No. 13, Alley 4, Lane 347, Liancheng Road, Zhonghe District"
    },
    {
      "geometry": {
        "location": {
          "lat": 24.9961091,
          "lng": 121.4873076
        },
        "viewport": {
          "northeast": {
            "lat": 24.9974653802915,
            "lng": 121.4886565802915
          },
          "southwest": {
            "lat": 24.9947674197085,
            "lng": 121.4859586197085
          }
        }
      },
      "icon": "https://maps.gstatic.com/mapfiles/place_api/icons/restaurant-71.png",
      "id": "d9f05abed0fd053cb114f63edb03b4bbce4d2c3e",
      "name": "八方雲集",
      "opening_hours": {
        "open_now": true,
        "weekday_text": []
      },
      "photos": [
        {
          "height": 1824,
          "html_attributions": [
            "<a href="https://maps.google.com/maps/contrib/105269696706532803224/photos">Devin帳號</a>"
          ],
          "photo_reference": "CmRaAAAARlJ_dHAJtt3lr3H0iYMYcuZ1ryNYMO7kw0ytSD6b3lgXilWTe2R9j6wFBc_SIy4ss94jHk0yVJQ-yuxEcjtfJSqPDzHCqgpqUwuOhT5TOKbzip_cmm4unoT6WSZIqBZgEhCM644GvROuo16WSLEcU3GCGhRWpIDsg2eq323_3NzLgOrD4q6onA",
          "width": 3264
        }
      ],
      "place_id": "ChIJVwRcz4YCaDQRqvUlMbBXAqI",
      "rating": 3.1,
      "reference": "CmRSAAAABW2-QrL1fvwEqbxZZC61uK91j8SVwBqpwh796u-3NzmXVHoSgZtUvKFDSOaOq5lW6s5-P4wp8Os0vyOWyZOWDmNe1UwlMW_2NZgfqOtFcFEtT-wqJbjrchNBPSe-KS4SEhAFnDlo_B-Ahm2JltU-bfd8GhRgE5YvE7R_a-4sjjiEJB59n8-K5Q",
      "scope": "GOOGLE",
      "types": [
        "restaurant",
        "food",
        "point_of_interest",
        "establishment"
      ],
      "vicinity": "號, No. 365, 連城路, 中和區"
    },
    {
      "geometry": {
        "location": {
          "lat": 24.996079,
          "lng": 121.48706
        },
        "viewport": {
          "northeast": {
            "lat": 24.9974279802915,
            "lng": 121.4884089802915
          },
          "southwest": {
            "lat": 24.99473001970849,
            "lng": 121.4857110197085
          }
        }
      },
      "icon": "https://maps.gstatic.com/mapfiles/place_api/icons/restaurant-71.png",
      "id": "05c2101d9584a05c87c0bda9b9ac1b132df070b1",
      "name": "丰园池上饭包",
      "place_id": "ChIJbabwx4YCaDQRA_6wEQZaq_Y",
      "rating": 5,
      "reference": "CmRSAAAAUEzD1NrqeneX-DU8yOIfASAEvK3TI0ssZvSvVkhgf5w6BDR1Idpy6rnFjb2KsAOIbf7G6q53PbvDRK9O7x2IMDiqMX1A8QAevno6C_9tBNq11jVKVC7zj8k2x_sHMNqGEhCynX5UL0EWuhvFrAdl6p8xGhTxNwtsagQnuknW_akgWQbUvXgotQ",
      "scope": "GOOGLE",
      "types": [
        "restaurant",
        "food",
        "point_of_interest",
        "establishment"
      ],
      "vicinity": "新北市中和區連城路377號1樓"
    },
    {
      "geometry": {
        "location": {
          "lat": 24.9960492,
          "lng": 121.4876075
        },
        "viewport": {
          "northeast": {
            "lat": 24.99744748029151,
            "lng": 121.4889564802915
          },
          "southwest": {
            "lat": 24.9947495197085,
            "lng": 121.4862585197085
          }
        }
      },
      "icon": "https://maps.gstatic.com/mapfiles/place_api/icons/restaurant-71.png",
      "id": "4b5662018214e98a7aae2bdb66d2e58fd945df8b",
      "name": "翠玉越南美食",
      "opening_hours": {
        "open_now": false,
        "weekday_text": []
      },
      "photos": [
        {
          "height": 2828,
          "html_attributions": [
            "<a href="https://maps.google.com/maps/contrib/102511378236213618256/photos">Ed Chang</a>"
          ],
          "photo_reference": "CmRaAAAAg5zhRg9f6Cf8h5lHKcmxXr1AN2EpBRcoFYTC4vTnNT9uBAp3iolmhe22a6pB0GFmNwtOYDJ2wWL_weFV1LUZRytdPxRO9auXBvfX7u4vzztZ0LHqYRCrjFT6-y49Kt57EhAfN0Phi6j5z5mf9FDLCGcYGhR0Phln0UIkgVy2dRdLiPg8hnYL7Q",
          "width": 2828
        }
      ],
      "place_id": "ChIJNwA8z4YCaDQRlDSM12iA-Tc",
      "rating": 4.1,
      "reference": "CmRRAAAA4xc9_iuiA20WVr3ng-HmAt8nawglkwpdNNXTmr4Hct5u2btDbvLvXOZ-VNDyhg6yE3asuu2qUeXcGeUDDxgTMdskcwjj_chPURguLFm1JClvf3x3ttoU2bYHfJU-oyQPEhA_IzWKaF6R436AYdrxYKMPGhSz7EM2CM92XjZZsH0NLJFYPaAyMw",
      "scope": "GOOGLE",
      "types": [
        "restaurant",
        "food",
        "point_of_interest",
        "establishment"
      ],
      "vicinity": "No. 361, Liancheng Road, Zhonghe District"
    },
    {
      "geometry": {
        "location": {
          "lat": 24.9954931,
          "lng": 121.4877401
        },
        "viewport": {
          "northeast": {
            "lat": 24.9968895802915,
            "lng": 121.4890900802915
          },
          "southwest": {
            "lat": 24.9941916197085,
            "lng": 121.4863921197085
          }
        }
      },
      "icon": "https://maps.gstatic.com/mapfiles/place_api/icons/restaurant-71.png",
      "id": "339d49482b8e2f74194723d972203b1e04949eab",
      "name": "ZOE若依烘焙坊",
      "opening_hours": {
        "open_now": true,
        "weekday_text": []
      },
      "place_id": "ChIJrfosw4YCaDQRDhQ_39cGDi8",
      "reference": "CmRRAAAATyySsBCnOscciqeFSnksvKaiyEKlUEe7KaSF7RMnwTgJJ_nZDygUKrRJK1eUC0HclB7kNAvWOBq7vNpY4bLHHsrs_td4iWVRdblWLepybKzdhZl_4w2THZcKtQ5LiVT1EhCTy_PQP7xJqAltX5QTiN-hGhSFo4r8cvhLBWylszArcPfAgNI3nQ",
      "scope": "GOOGLE",
      "types": [
        "restaurant",
        "food",
        "point_of_interest",
        "establishment"
      ],
      "vicinity": "No. 13, Alley 4, Lane 347, Liancheng Road, Zhonghe District"
    },
    {
      "geometry": {
        "location": {
          "lat": 24.9960557,
          "lng": 121.4876797
        },
        "viewport": {
          "northeast": {
            "lat": 24.9974507302915,
            "lng": 121.4890286802915
          },
          "southwest": {
            "lat": 24.9947527697085,
            "lng": 121.4863307197085
          }
        }
      },
      "icon": "https://maps.gstatic.com/mapfiles/place_api/icons/restaurant-71.png",
      "id": "5b03000afd992aa856a556a0e945076b64c40f3a",
      "name": "天厨素食坊",
      "opening_hours": {
        "open_now": false,
        "weekday_text": []
      },
      "photos": [
        {
          "height": 2988,
          "html_attributions": [
            "<a href="https://maps.google.com/maps/contrib/112834570661281920248/photos">weijhih Liou</a>"
          ],
          "photo_reference": "CmRaAAAAh6qqNIM-eJQdVYinuxUbJa3qwH2HYwXaY1rpINjOjOxa-Y33W4FdhrGG1caKiVRkrlp9rsd0S6eFximRPlLwya2grRdK8y9NHsm5TvTBEbtxtZnVtLQKCCQnUOGQNeu0EhAHdiyuIa2rr5eme37uFahUGhS62tsDb5zINnBkm-zaxPl7MC0kCQ",
          "width": 5312
        }
      ],
      "place_id": "ChIJ04PLz4YCaDQRl487ViVDMZs",
      "rating": 4.5,
      "reference": "CmRSAAAA44fpGW1oCpvnxnL3sdE7-78vuqKq51rCFnbPCVsKr5CbAIM5A8Fbx0PCxDqcvBuVVHWntxF6CgU14sTuuT5-DJhb_VaNxAqDWZ7iB5s3jylF31JB9tpFm-cYLYJU2YZYEhCMsoj4k-S0p8yQzqlv0dE4GhRAg33y68lxXWiUt-9by7isCScWFQ",
      "scope": "GOOGLE",
      "types": [
        "restaurant",
        "food",
        "point_of_interest",
        "establishment"
      ],
      "vicinity": "No. 359, Liancheng Road, Zhonghe District"
    },
    {
      "geometry": {
        "location": {
          "lat": 24.99609719999999,
          "lng": 121.4867882
        },
        "viewport": {
          "northeast": {
            "lat": 24.9974461802915,
            "lng": 121.4881371802915
          },
          "southwest": {
            "lat": 24.99474821970849,
            "lng": 121.4854392197085
          }
        }
      },
      "icon": "https://maps.gstatic.com/mapfiles/place_api/icons/restaurant-71.png",
      "id": "0d7855aabf1111e14161d775ec9a86c89391d6e6",
      "name": "古斯塔義大利面 Gusta Pasta",
      "opening_hours": {
        "open_now": false,
        "weekday_text": []
      },
      "photos": [
        {
          "height": 3024,
          "html_attributions": [
            "<a href="https://maps.google.com/maps/contrib/114579766151614957929/photos">Christina777</a>"
          ],
          "photo_reference": "CmRaAAAABCuKjNi2lF59tk4z7rLAyXl-o69WftmnxHbIxScs44IO_83gvYLICnHvpZ92PCIf9ryxcAQ6gvB9N6l2s5_mhudP5u_PVkBiq8trme4SYauiaK5_WsOn53n0i2yFAsCSEhD8K-ejTLHoZh1oLsoXDU9_GhTLASsF9Kfoc33QjOi1F4EsAYEp_g",
          "width": 4032
        }
      ],
      "place_id": "ChIJswmBuYYCaDQR6_JkQRWgPhU",
      "rating": 4.3,
      "reference": "CmRRAAAAJYOXnYU1ElaakcHsahXUziVneA-iJciUeoGcfYO_JMpvZ4opfU0IqSvq_4QeZUfng0hWS5SDxyb5lUA7Bz714VSXqtOY8x90L2xgro-Da27Ml-gsfkC8MMKJuEfiryn4EhBel9UUiY_NdhAu3vW86cBvGhQbBPQvfL73dDGL_kF4-YXyPKxyWQ",
      "scope": "GOOGLE",
      "types": [
        "restaurant",
        "food",
        "point_of_interest",
        "establishment"
      ],
      "vicinity": "連城路383號, Zhonghe District"
    },
    {
      "geometry": {
        "location": {
          "lat": 24.9962931,
          "lng": 121.4873065
        },
        "viewport": {
          "northeast": {
            "lat": 24.9976147802915,
            "lng": 121.4890275802915
          },
          "southwest": {
            "lat": 24.9949168197085,
            "lng": 121.4863296197085
          }
        }
      },
      "icon": "https://maps.gstatic.com/mapfiles/place_api/icons/restaurant-71.png",
      "id": "74665038c011dc323bf1995dd6a78e79ddf1f2ba",
      "name": "滿福鍋燒麵",
      "opening_hours": {
        "open_now": true,
        "weekday_text": []
      },
      "photos": [
        {
          "height": 4032,
          "html_attributions": [
            "<a href="https://maps.google.com/maps/contrib/114563570465134097214/photos">賴蓓蓓</a>"
          ],
          "photo_reference": "CmRaAAAAy9qEsW-OfPHhp66zBbUPOBURcaj3mSSWNlWTjovAiIMI6Mt9uBQFs4_FrJbvhqQHR0GCCod4JMWFXG5nPlvf7pxAqFrzWm0NMVA0KmZq4Jr1h_DvvU81sp-Mhfpd4AGHEhDnDW4Hk80hZezvFUDfoChkGhRhk4cbEnuONHn_AdyBhe8rktpHRA",
          "width": 3024
        }
      ],
      "place_id": "ChIJnTQgyYYCaDQR_RIm2Amd8Xs",
      "rating": 5,
      "reference": "CmRRAAAAyzxmJQxjcVd9i8ISEh7cdGFDTqIgv0klR0qGSLZSut7wUTWDdyFYXvGlA4n8e84SvNBHfwjVryatJo4SrPUFNvEEnPPO9D6ax1Ll2PgVzA68c43C4lRuJnbWTQqR2HdqEhCHNS9aK-WN4J84Kr0DMEjxGhRPZn9XT9IzACv5JuZixLclIS1tVg",
      "scope": "GOOGLE",
      "types": [
        "restaurant",
        "food",
        "point_of_interest",
        "establishment"
      ],
      "vicinity": "No. 5, Lane 347, Liancheng Road, Zhonghe District"
    },
    {
      "geometry": {
        "location": {
          "lat": 24.9960905,
          "lng": 121.4867229
        },
        "viewport": {
          "northeast": {
            "lat": 24.9974654802915,
            "lng": 121.4880718802915
          },
          "southwest": {
            "lat": 24.9947675197085,
            "lng": 121.4853739197085
          }
        }
      },
      "icon": "https://maps.gstatic.com/mapfiles/place_api/icons/restaurant-71.png",
      "id": "5c21a30336cb07ca02af7c7d578b416cc99bf209",
      "name": "鉄の食堂",
      "opening_hours": {
        "open_now": false,
        "weekday_text": []
      },
      "photos": [
        {
          "height": 3024,
          "html_attributions": [
            "<a href="https://maps.google.com/maps/contrib/117407965227342012479/photos">Shu-Tsyr Tzeng</a>"
          ],
          "photo_reference": "CmRaAAAAymeijyeTDkFS9Rvl0Io_-5yYcHhEAedfVkVgT8mEzEI0klbOEGfio8Bfi5LdOFPJQH3ad5siNUN3fhBbNIseKGrlgSk5S5N1jdoPIJnfHnU8PCBWReG5FRmEsY-O1PLFEhAErea5WmZEvc1QjNWYPz3SGhRZjJlBhtEYmpB4-0smVlJAPHzzwg",
          "width": 4032
        }
      ],
      "place_id": "ChIJ1d6RuYYCaDQRpYY-kCx9p5Q",
      "rating": 4,
      "reference": "CmRSAAAAWC0BmyTMZeKBmLSwFc8XhHyiOXnYQ9JWxxNdnY6MzFc_lNW9zmXMqhVBLfjxk6Yk5b_7KuEqRQYMpsBsZqPetwhMcR4N7C3ktKb-HY_LNQ7mkGAQgbdu1ew17PtaQPIkEhA2f71ytbHyhEWcGKKcAPPyGhT6kWhBuZo-gSwfSgk3HCZhRQ2Afw",
      "scope": "GOOGLE",
      "types": [
        "restaurant",
        "food",
        "point_of_interest",
        "establishment"
      ],
      "vicinity": "No. 383號, Liancheng Road, Zhonghe District"
    },
    {
      "geometry": {
        "location": {
          "lat": 24.9960527,
          "lng": 121.4866923
        },
        "viewport": {
          "northeast": {
            "lat": 24.9974493302915,
            "lng": 121.4880412802915
          },
          "southwest": {
            "lat": 24.9947513697085,
            "lng": 121.4853433197085
          }
        }
      },
      "icon": "https://maps.gstatic.com/mapfiles/place_api/icons/restaurant-71.png",
      "id": "9383a069404a2d8b9636bbc0680ad4b173129459",
      "name": "陈妈妈烟熏卤位",
      "place_id": "ChIJswmBuYYCaDQRPvTiU5aBF70",
      "reference": "CmRSAAAAZkcaR62bms-cD7dxLFI_L7elLwg2q31GMRmlGUOnrWdaQzdHDvsdmLo-vlGA4VQmsLjtA6jFtiPMivW4C9aJeuslYv6BFsl3lnOfeQdhRLnTCax4cP78olcFAz936ctWEhA8zjdKl6oo0mpogns638BGGhRZO2s78SiDNQgXWHPkon614WbZ5g",
      "scope": "GOOGLE",
      "types": [
        "restaurant",
        "food",
        "point_of_interest",
        "establishment"
      ],
      "vicinity": "No. 383-1號, Liancheng Road, Zhonghe District"
    },
    {
      "geometry": {
        "location": {
          "lat": 24.9960527,
          "lng": 121.4866923
        },
        "viewport": {
          "northeast": {
            "lat": 24.9974493302915,
            "lng": 121.4880412802915
          },
          "southwest": {
            "lat": 24.9947513697085,
            "lng": 121.4853433197085
          }
        }
      },
      "icon": "https://maps.gstatic.com/mapfiles/place_api/icons/restaurant-71.png",
      "id": "0db4377ac16819acb5dc868de5779405c94a4a2d",
      "name": "丰覺早餐·自選火鍋",
      "place_id": "ChIJswmBuYYCaDQRWn5j_bhhomQ",
      "rating": 5,
      "reference": "CmRRAAAA8V5DUqImwKKK-g6XiYxXyhKil6NroYFuHTOy6Ix24U8vXinqrmnuq-oxAH0WTT6mKL_NpEpipf7FYjsBzZ_coJfKSQTVLKkzFGn5CN66sHWM6nYAbMIahfyq8LewkvLDEhBSgneMIaUiTGja4qwmvD7tGhRkc_Tpk3yKXHluANVS4XJtALAMWA",
      "scope": "GOOGLE",
      "types": [
        "restaurant",
        "food",
        "point_of_interest",
        "establishment"
      ],
      "vicinity": "No. 383-1號, Liancheng Road, Zhonghe District"
    },
    {
      "geometry": {
        "location": {
          "lat": 24.9960527,
          "lng": 121.4866923
        },
        "viewport": {
          "northeast": {
            "lat": 24.9974493302915,
            "lng": 121.4880412802915
          },
          "southwest": {
            "lat": 24.9947513697085,
            "lng": 121.4853433197085
          }
        }
      },
      "icon": "https://maps.gstatic.com/mapfiles/place_api/icons/restaurant-71.png",
      "id": "ca20789568891a98ae6900b40853b32d5613eaf5",
      "name": "鉄 e食堂",
      "opening_hours": {
        "open_now": false,
        "weekday_text": []
      },
      "place_id": "ChIJswmBuYYCaDQR8wuBVSYPU1k",
      "rating": 5,
      "reference": "CmRRAAAAnAfQsOtb_xASD1CV8qMYFt7TewYGP7UyI8CBEaPahQ34nScdxYc_3zMgiOQu7v3YJ4FHhMAz8oMNsa_Y-RIWKeffMykEDh4cpGRzhGZfMjLRR21NgW56VRx61tK40ySDEhDaB4a2PeP-7EAGkpOpJfJBGhTazkG70MwBc03J-UTTqlcq744QjQ",
      "scope": "GOOGLE",
      "types": [
        "restaurant",
        "food",
        "point_of_interest",
        "establishment"
      ],
      "vicinity": "No. 383-1, Liancheng Road, Zhonghe District"
    },
    {
      "geometry": {
        "location": {
          "lat": 24.9956637,
          "lng": 121.4879144
        },
        "viewport": {
          "northeast": {
            "lat": 24.9970126802915,
            "lng": 121.4892633802915
          },
          "southwest": {
            "lat": 24.9943147197085,
            "lng": 121.4865654197085
          }
        }
      },
      "icon": "https://maps.gstatic.com/mapfiles/place_api/icons/restaurant-71.png",
      "id": "8a3accd3c421250196bd13fac500223ed842b251",
      "name": "阿恆越南美食",
      "opening_hours": {
        "open_now": true,
        "weekday_text": []
      },
      "photos": [
        {
          "height": 403,
          "html_attributions": [
            "<a href="https://maps.google.com/maps/contrib/116264518078111508951/photos">阿恆越南美食</a>"
          ],
          "photo_reference": "CmRaAAAAQpyTDWJDq4KGDHgZV33dpxczuBBA5IKy_IRgZR_7OJjeKp449V_P9toA9uovPgOwgMrBzV8nwD5bc19gzz9viY11Bp5V5uDweXAW_jiQKsB8NYq-iVPi8oSo285r2jFREhDJGR4--E_OGKu9FDpv0WCnGhSkCtQvOVgJJlX1g7owW5sX31-0RQ",
          "width": 720
        }
      ],
      "place_id": "ChIJift024YCaDQRwbXVa0vQ3wM",
      "rating": 3.7,
      "reference": "CmRRAAAAnUEVhQfdbRma4gA95dcnPoj4PfaPoIOQXx9RAIcW1lx17wTZ05XhWB49tS6vIT6nMXM260iRm3XH2gpV5Fgp27btLGwdlCCH32FyykpPId1pqagFi0K8BJ5guKHhTFF_EhCWWurUARJEG-1AxqZ6eZtGGhS0rH2ANOs2FAQy-i33qP1OLpOPQg",
      "scope": "GOOGLE",
      "types": [
        "restaurant",
        "food",
        "point_of_interest",
        "establishment"
      ],
      "vicinity": "號, No. 8連城路347巷4弄, 中和區"
    },
    {
      "geometry": {
        "location": {
          "lat": 24.9960811,
          "lng": 121.4878535
        },
        "viewport": {
          "northeast": {
            "lat": 24.9974633802915,
            "lng": 121.4892024802915
          },
          "southwest": {
            "lat": 24.9947654197085,
            "lng": 121.4865045197085
          }
        }
      },
      "icon": "https://maps.gstatic.com/mapfiles/place_api/icons/restaurant-71.png",
      "id": "299b60429e8cb0226b467b4dbd9b4b8d87cd742c",
      "name": "Yoshinoya",
      "opening_hours": {
        "open_now": true,
        "weekday_text": []
      },
      "photos": [
        {
          "height": 2448,
          "html_attributions": [
            "<a href="https://maps.google.com/maps/contrib/101546697084690272754/photos">ANDY LIU</a>"
          ],
          "photo_reference": "CmRaAAAAvjpRf1Ncx8VaJygMQ02on60iFQveMKuyuM9b740vPY6j4TbDVLSC9P9--RYiiG5hV_9A7vbuacAbBJ5lCOOgUEcQISvZC_JSN-eJU9AioSeYverXfji0DtepU13x58z_EhAmI363RuyqK8dNP6qQTC4oGhRyEE8scHLctxNVsDDPpvVKqmBBXw",
          "width": 3264
        }
      ],
      "place_id": "ChIJs9s40IYCaDQRlfyBYgySmWI",
      "rating": 3.5,
      "reference": "CmRRAAAArumxJL0l1JlZwqTmJjQU8IvoCgDFdo-yMWDhTOSSNsp0E97bp3EpEYDa8TFzdq9On517hKxT4sA5mRgCMn3CWbvHeXOGpdYswg8f-qu7BGnAAm9XvwVCAIqEeN-vDh32EhBQIyCFVCQ82_TYmVnSKpauGhQb7sJvCiliA4rWIJKSmCVHiTqLXw",
      "scope": "GOOGLE",
      "types": [
        "restaurant",
        "food",
        "point_of_interest",
        "establishment"
      ],
      "vicinity": "No. 355, Liancheng Road, Zhonghe District"
    },
    {
      "geometry": {
        "location": {
          "lat": 24.9960541,
          "lng": 121.4865939
        },
        "viewport": {
          "northeast": {
            "lat": 24.9974030802915,
            "lng": 121.4879428802915
          },
          "southwest": {
            "lat": 24.9947051197085,
            "lng": 121.4852449197085
          }
        }
      },
      "icon": "https://maps.gstatic.com/mapfiles/place_api/icons/restaurant-71.png",
      "id": "879ee63b3e5d4d092aaae0ddcb6034b9f0e13cb9",
      "name": "日月亭素食",
      "photos": [
        {
          "height": 3366,
          "html_attributions": [
            "<a href="https://maps.google.com/maps/contrib/114902192918257667668/photos">jiki Dan</a>"
          ],
          "photo_reference": "CmRaAAAAiyHRpler0MTo2lFxwmZ7NB-d5Cd39EyHcltpYjdNhFNiIBSzQce_nACyCvz6szFZ4kyGfciVJMBViFLqxhJ1U28m3cE8qDg5Y1xtFlAeQdj6e_glXSyOYMk_NJz0blrlEhA012WMoZZaANxMuIinC6KKGhR5zMnT34J0Gthsz1aTWABV4SG2Ug",
          "width": 5984
        }
      ],
      "place_id": "ChIJEUxBuoYCaDQRelci6aNv57c",
      "rating": 3.9,
      "reference": "CmRSAAAAlRlLJNEyCB4Eop_N6do476EN_7R4_gN6TMmM9zLxaibuH0SVLknxQ4Uol4ZK9ZK4ofrwJ3pykOkGbAmiXTJQPyCDU2bG_qGLpYTQGaKEg3s3RspktsmlLwmXGakhOEFjEhA77TluHwao-yviobJXed1zGhSODJ1jhDmVxk1vJMc9ibNonTview",
      "scope": "GOOGLE",
      "types": [
        "restaurant",
        "food",
        "point_of_interest",
        "establishment"
      ],
      "vicinity": "新北市中和區連城路387號"
    },
    {
      "geometry": {
        "location": {
          "lat": 24.995805,
          "lng": 121.486467
        },
        "viewport": {
          "northeast": {
            "lat": 24.9971531302915,
            "lng": 121.4878568802915
          },
          "southwest": {
            "lat": 24.99445516970849,
            "lng": 121.4851589197085
          }
        }
      },
      "icon": "https://maps.gstatic.com/mapfiles/place_api/icons/restaurant-71.png",
      "id": "09566c6792cd5e15f16b85a701b7eacec752f9f2",
      "name": "瀚季水餃面食",
      "photos": [
        {
          "height": 4608,
          "html_attributions": [
            "<a href="https://maps.google.com/maps/contrib/112216293778884810359/photos">Vic hsiao</a>"
          ],
          "photo_reference": "CmRaAAAA2-NNnMVVRh35ahCn_HK2HMzK76Jix3xu8tiuMn1lrm8UJ_-xeb1QiHnht-1jZOe1m7E16St0gz-KUSeyI7xNrbBSf-2kJJLwP3Wa-0tBBrmp83SB5G_d4I7Eo4vIObi4EhARrcUFHMH-kzgLoMOP5UfHGhRoR6-JJDXP5a9vaVW7xjS1ZbCALg",
          "width": 2592
        }
      ],
      "place_id": "ChIJiYHwvIYCaDQRnZzOV6OQV_c",
      "rating": 3.5,
      "reference": "CmRSAAAAh5GcY_s1OlBpG9oZ_JU6uL0yDpahKRGM1tXD0tFK0YSRWllv7XFYrD9v7m8U4OpPKiU57EyGOUjLw9iupQvxsYNGk2NHSRQwVFJoTkAHRRUVMOuQHHx9-rRqg4j_odX2EhAv_We6JVrFWSvwqntAu7eQGhTmbb6W6ke8wkFm1pUTD081_qZH_Q",
      "scope": "GOOGLE",
      "types": [
        "restaurant",
        "food",
        "point_of_interest",
        "establishment"
      ],
      "vicinity": "No. 6, Lane 389, Liancheng Road, Zhonghe District"
    }
  ],
  "status": "OK"
}
